{"icon":"https://maps.gstatic.com/mapfiles/place_api/icons/generic_business-71.png","name":"The Wash Room Laundry Services & More","address":"A. S. Fortuna St, Mandaue City, 6014 Cebu, Philippines","phone":"(032) 346 0569","place_id":"ChIJ7QE-2_qYqTMR1bD68MIEz50","coordinates":{"lng":123.92018299999995,"lat":10.3409169},"url":"https://maps.google.com/?cid=11371312819446919381","website":"https://www.facebook.com/TheWashRoomLaundryServices"}
{"icon":"https://maps.gstatic.com/mapfiles/place_api/icons/generic_business-71.png","name":"Sang Laundry Care","address":"A. S. Fortuna St, Mandaue City, 6014 Cebu, Philippines","phone":"(032) 511 0819","place_id":"ChIJn9a4aOWYqTMRZcll5VdUP-A","coordinates":{"lng":123.91756599999997,"lat":10.342442},"url":"https://maps.google.com/?cid=16158726724516170085"}
{"icon":"https://maps.gstatic.com/mapfiles/place_api/icons/generic_business-71.png","name":"Neverblue Laundry","address":"Chona Feliciano Bldg, A. S. Fortuna St, Mandaue City, 6014 Cebu, Philippines","phone":"(032) 514 3276","place_id":"ChIJ23W-5PqYqTMRUZHi0bQ4p9Y","coordinates":{"lng":123.92125599999997,"lat":10.34062},"url":"https://maps.google.com/?cid=15467393794493813073"}
{"icon":"https://maps.gstatic.com/mapfiles/place_api/icons/generic_business-71.png","name":"Holy Family","address":"C.O.S Arcade, Old Bonifacio Road, Cebu City, 6000 Cebu, Philippines","phone":"(032) 316 2438","place_id":"ChIJmSahreiYqTMR0cPcfm8It_4","coordinates":{"lng":123.91348100000005,"lat":10.344109},"url":"https://maps.google.com/?cid=18354148081334535121"}
{"icon":"https://maps.gstatic.com/mapfiles/place_api/icons/generic_business-71.png","name":"Ezy Laundry Shop","address":"1976 Hernan Cortes St, Mandaue City, Cebu, Philippines","place_id":"ChIJ_UOWgPmYqTMR912zcpPaTm4","coordinates":{"lng":123.92488090000006,"lat":10.3400513},"url":"https://maps.google.com/?cid=7948530719174909431"}
{"icon":"https://maps.gstatic.com/mapfiles/place_api/icons/generic_business-71.png","name":"The Laundry Room","address":"Gov. M. Cuenco Ave, Cebu City, 6000 Cebu, Philippines","phone":"0933 446 4992","place_id":"ChIJfz7rauaYqTMR5RnGpCNGoaA","coordinates":{"lng":123.91236500000002,"lat":10.342435},"url":"https://maps.google.com/?cid=11574609636221131237"}
{"icon":"https://maps.gstatic.com/mapfiles/place_api/icons/generic_business-71.png","name":"Soaperman Laundry Center","address":"1620 Hernan Cortes Street, Banilad, Door 2 Boston Hardware Inc. Building, Mandaue City, 6014 Cebu, Philippines","phone":"(032) 516 0045","place_id":"ChIJh8fBiPmYqTMRjthvcqBrXj8","coordinates":{"lng":123.92494599999998,"lat":10.340133},"url":"https://maps.google.com/?cid=4566205409059133582","opening_hours":["Monday: 7:00 AM – 7:00 PM","Tuesday: 7:00 AM – 7:00 PM","Wednesday: 7:00 AM – 7:00 PM","Thursday: 7:00 AM – 7:00 PM","Friday: 7:00 AM – 7:00 PM","Saturday: 7:00 AM – 7:00 PM","Sunday: Closed"]}
{"icon":"https://maps.gstatic.com/mapfiles/place_api/icons/generic_business-71.png","name":"S Oaperman Laundry Center","address":"Boston Bldg, 1620 Hernan Cortes St, Mandaue City, 6014 Cebu, Philippines","phone":"(02) 516 0045","place_id":"ChIJAeIZgfmYqTMRNmuH7R6fIIE","coordinates":{"lng":123.92503999999997,"lat":10.340023},"url":"https://maps.google.com/?cid=9304611785330354998"}
{"icon":"https://maps.gstatic.com/mapfiles/place_api/icons/generic_business-71.png","name":"Laundry Eighty-Eight","address":"JRA Building, Hernan Cortes St, Mandaue City, Cebu, Philippines","phone":"(032) 520 7388","place_id":"ChIJT7bMQPeYqTMRNirzS95TJ68","coordinates":{"lng":123.9258294,"lat":10.3432447},"url":"https://maps.google.com/?cid=12621148694951176758","opening_hours":["Monday: 6:30 AM – 8:30 PM","Tuesday: 6:30 AM – 8:30 PM","Wednesday: 6:30 AM – 8:30 PM","Thursday: 6:30 AM – 8:30 PM","Friday: 6:30 AM – 8:30 PM","Saturday: 6:30 AM – 8:30 PM","Sunday: 8:00 AM – 5:00 PM"]}
{"icon":"https://maps.gstatic.com/mapfiles/place_api/icons/generic_business-71.png","name":"HYLA Sales & Service Center","address":"G/F Basubas Apartment A. S. Mandaue City, A. S. Fortuna St Mandaue City 6014 Cebu, A. S. Fortuna St, Mandaue City, Cebu, Philippines","phone":"(032) 513 8112","place_id":"ChIJ7bsl0fqYqTMRuX6CiiwM82I","coordinates":{"lng":123.92469240000003,"lat":10.3394663},"url":"https://maps.google.com/?cid=7130056020499529401","website":"http://www.hyla.com/","rating":5,"opening_hours":["Monday: 8:00 AM – 8:00 PM","Tuesday: 8:00 AM – 8:00 PM","Wednesday: 8:00 AM – 8:00 PM","Thursday: 8:00 AM – 8:00 PM","Friday: 8:00 AM – 8:00 PM","Saturday: 8:00 AM – 8:00 PM","Sunday: 9:00 AM – 8:00 PM"]}
{"icon":"https://maps.gstatic.com/mapfiles/place_api/icons/generic_business-71.png","name":"Laundry Eighty-Eight","address":"Pat Building, Hernan Cortes St, Banlad, Mandaue City, 6014 Cebu, Philippines","phone":"(032) 520 7388","place_id":"ChIJvZc0R_eYqTMRbkQy2mov-mM","coordinates":{"lng":123.92586200000005,"lat":10.3432409},"url":"https://maps.google.com/?cid=7204122689906295918"}
{"icon":"https://maps.gstatic.com/mapfiles/place_api/icons/generic_business-71.png","name":"We Care Laundry The Pro In Laundry Service","address":"J.Panes St, Cebu City, 6000 Cebu, Philippines","phone":"0923 288 4354","place_id":"ChIJ7_uLseaYqTMRWPVMj1s9nvU","coordinates":{"lng":123.91286289999994,"lat":10.339165},"url":"https://maps.google.com/?cid=17698651049068131672"}
{"icon":"https://maps.gstatic.com/mapfiles/place_api/icons/generic_business-71.png","name":"Shartines Laundry","address":"J. Panes St., Cebu City, 6000 Cebu, Philippines","phone":"0949 962 8773","place_id":"ChIJQQI1ueaYqTMRiLcI0dDh3hU","coordinates":{"lng":123.91252400000008,"lat":10.3397829},"url":"https://maps.google.com/?cid=1575945206602708872"}
{"icon":"https://maps.gstatic.com/mapfiles/place_api/icons/generic_business-71.png","name":"Soaperman Laundry","address":"A S Fortuna Street, Banilad, Mandaue City, 6014 Cebu, Philippines","phone":"(032) 343 3339","place_id":"ChIJx4gcefmYqTMRKWXN4ANWDBY","coordinates":{"lng":123.9252917,"lat":10.3396154},"url":"https://maps.google.com/?cid=1588739343211390249"}
{"icon":"https://maps.gstatic.com/mapfiles/place_api/icons/generic_business-71.png","name":"Shartines Laundry","address":"J. Panes St., Cebu City, 6000 Cebu, Philippines","phone":"0949 962 8773","place_id":"ChIJQQI1ueaYqTMRlxwijF3D0mU","coordinates":{"lng":123.91252400000008,"lat":10.3397829},"url":"https://maps.google.com/?cid=7337141549490379927"}
{"icon":"https://maps.gstatic.com/mapfiles/place_api/icons/generic_business-71.png","name":"Laundry Pro Professional Laundry and Cleaning","address":"Gov. M. Cuenco Avenue, Cebu City, 6000 Cebu, Philippines","phone":"(032) 412 9569","place_id":"ChIJI7RkNemYqTMR8aBjinSt5iY","coordinates":{"lng":123.91353800000002,"lat":10.347186},"url":"https://maps.google.com/?cid=2803118534134309105"}
{"icon":"https://maps.gstatic.com/mapfiles/place_api/icons/generic_business-71.png","name":"Bluewash Laundry Shop","address":"A. S. Fortuna St, Mandaue City, Philippines","place_id":"ChIJu6Oze_mYqTMRskQ0oQLY-es","coordinates":{"lng":123.92533230000004,"lat":10.3393763},"url":"https://maps.google.com/?cid=17003859373920109746","rating":5}
